{"type":"FeatureCollection","features":[{"type":"Feature","geometry":{"type":"LineString","coordinates":[[-3.1878,55.944],[-3.1878261,55.9442989],[-3.1878782,55.9445943],[-3.1875794,55.9445682],[-3.1872794,55.9445682],[-3.1869794,55.9445682],[-3.1866794,55.9445682],[-3.1863896,55.9446458],[-3.1861598,55.944453],[-3.185914,55.9442809],[-3.1856842,55.9440881],[-3.1854385,55.943916],[-3.1852087,55.9437231],[-3.1850366,55.9434774],[-3.1848438,55.9432476],[-3.1851157,55.9431208],[-3.1853755,55.9429708],[-3.1856474,55.942844],[-3.1856212,55.9431429],[-3.185748,55.9434148],[-3.1856212,55.9436867],[-3.1854944,55.9439586],[-3.1853676,55.9442304],[-3.185265,55.9445124],[-3.1850052,55.9446624],[-3.1847454,55.9448124],[-3.1844735,55.9449391],[-3.1846235,55.9451989],[-3.1847735,55.9454588],[-3.1849456,55.9457045],[-3.1851384,55.9459343],[-3.1853506,55.9461464],[-3.1856325,55.9460438],[-3.1859144,55.9459412],[-3.1861963,55.9458386],[-3.1864782,55.945736],[-3.1867601,55.9456334],[-3.1869529,55.9454036],[-3.1871458,55.9456334],[-3.1873386,55.9458632],[-3.1876205,55.9457606],[-3.1879024,55.945658],[-3.1881843,55.9455554],[-3.1884798,55.9455033],[-3.1887752,55.9454512],[-3.1886976,55.9451614],[-3.1888244,55.9448895],[-3.1889511,55.9446177],[-3.1890779,55.9443458],[-3.1893598,55.9442432],[-3.1896417,55.9441406],[-3.1896156,55.9438417],[-3.189911,55.9437896],[-3.1902065,55.9437375],[-3.1903993,55.9435077],[-3.1905922,55.9432779],[-3.1907642,55.9430321],[-3.1910631,55.9430583],[-3.1911657,55.9433402],[-3.1908668,55.9433663],[-3.190568,55.9433925],[-3.1902725,55.9434446],[-3.1899906,55.9435472],[-3.1897087,55.9436498],[-3.1894268,55.9437524],[-3.1891449,55.943855],[-3.188863,55.9439576],[-3.1885676,55.9440097],[-3.1882721,55.9440618],[-3.1881453,55.9437899],[-3.1879953,55.9435301],[-3.1878927,55.9432482],[-3.1877659,55.9429763],[-3.1876633,55.9426944],[-3.1874913,55.9429401],[-3.1873192,55.9431859],[-3.1873453,55.9434847],[-3.1875382,55.9437145],[-3.1877503,55.9439267]]},"properties":{}},{"type":"Feature","geometry":{"type":"Point","coordinates":[-3.187404,55.945949]},"properties":{"location":"slips.mass.baking","rgb-string":"#ffc000","marker-color":"#ffc000","marker-symbol":"danger"}},{"type":"Feature","geometry":{"type":"Point","coordinates":[-3.184465,55.944952]},"properties":{"location":"sports.topic.clocks","rgb-string":"#000000","marker-color":"#000000","marker-symbol":"cross"}},{"type":"Feature","geometry":{"type":"Point","coordinates":[-3.189812,55.94409]},"properties":{"location":"cliff.asleep.wedge","rgb-string":"#40ff00","marker-color":"#40ff00","marker-symbol":"lighthouse"}},{"type":"Feature","geometry":{"type":"Point","coordinates":[-3.187211,55.943335]},"properties":{"location":"scale.chair.kinds","rgb-string":"#80ff00","marker-color":"#80ff00","marker-symbol":"lighthouse"}},{"type":"Feature","geometry":{"type":"Point","coordinates":[-3.188271,55.944063]},"properties":{"location":"rush.crown.link","rgb-string":"#00ff00","marker-color":"#00ff00","marker-symbol":"lighthouse"}},{"type":"Feature","geometry":{"type":"Point","coordinates":[-3.188319,55.945518]},"properties":{"location":"skills.less.herb","rgb-string":"#ff4000","marker-color":"#ff4000","marker-symbol":"danger"}},{"type":"Feature","geometry":{"type":"Point","coordinates":[-3.190197,55.943443]},"properties":{"location":"arts.dish.scarcely","rgb-string":"#40ff00","marker-color":"#40ff00","marker-symbol":"lighthouse"}},{"type":"Feature","geometry":{"type":"Point","coordinates":[-3.188801,55.945437]},"properties":{"location":"shady.soft.phones","rgb-string":"#ff4000","marker-color":"#ff4000","marker-symbol":"danger"}},{"type":"Feature","geometry":{"type":"Point","coordinates":[-3.185332,55.946138]},"properties":{"location":"prime.rent.silk","rgb-string":"#ff8000","marker-color":"#ff8000","marker-symbol":"danger"}},{"type":"Feature","geometry":{"type":"Point","coordinates":[-3.187982,55.943497]},"properties":{"location":"scare.cubs.resort","rgb-string":"#40ff00","marker-color":"#40ff00","marker-symbol":"lighthouse"}},{"type":"Feature","geometry":{"type":"Point","coordinates":[-3.191161,55.943362]},"properties":{"location":"meal.feed.large","rgb-string":"#40ff00","marker-color":"#40ff00","marker-symbol":"lighthouse"}},{"type":"Feature","geometry":{"type":"Point","coordinates":[-3.189619,55.94382]},"properties":{"location":"burn.spot.across","rgb-string":"#40ff00","marker-color":"#40ff00","marker-symbol":"lighthouse"}},{"type":"Feature","geometry":{"type":"Point","coordinates":[-3.187355,55.943604]},"properties":{"location":"shut.stands.media","rgb-string":"#80ff00","marker-color":"#80ff00","marker-symbol":"lighthouse"}},{"type":"Feature","geometry":{"type":"Point","coordinates":[-3.185043,55.945868]},"properties":{"location":"rider.aura.bulb","rgb-string":"#ffc000","marker-color":"#ffc000","marker-symbol":"danger"}},{"type":"Feature","geometry":{"type":"Point","coordinates":[-3.191161,55.943065]},"properties":{"location":"else.urban.museum","rgb-string":"#00ff00","marker-color":"#00ff00","marker-symbol":"lighthouse"}},{"type":"Feature","geometry":{"type":"Point","coordinates":[-3.186777,55.944575]},"properties":{"location":"artist.gets.react","rgb-string":"#c0ff00","marker-color":"#c0ff00","marker-symbol":"lighthouse"}},{"type":"Feature","geometry":{"type":"Point","coordinates":[-3.186729,55.945653]},"properties":{"location":"hidden.handle.softly","rgb-string":"#ff0000","marker-color":"#ff0000","marker-symbol":"danger"}},{"type":"Feature","geometry":{"type":"Point","coordinates":[-3.188704,55.945168]},"properties":{"location":"rooms.lamp.teach","rgb-string":"#ff8000","marker-color":"#ff8000","marker-symbol":"danger"}},{"type":"Feature","geometry":{"type":"Point","coordinates":[-3.185814,55.943551]},"properties":{"location":"record.sofa.sock","rgb-string":"#ff4000","marker-color":"#ff4000","marker-symbol":"danger"}},{"type":"Feature","geometry":{"type":"Point","coordinates":[-3.188945,55.943928]},"properties":{"location":"noted.friday.jams","rgb-string":"#00ff00","marker-color":"#00ff00","marker-symbol":"lighthouse"}},{"type":"Feature","geometry":{"type":"Point","coordinates":[-3.185573,55.942877]},"properties":{"location":"dent.shins.cycle","rgb-string":"#000000","marker-color":"#000000","marker-symbol":"cross"}},{"type":"Feature","geometry":{"type":"Point","coordinates":[-3.187885,55.944709]},"properties":{"location":"hurt.green.filer","rgb-string":"#80ff00","marker-color":"#80ff00","marker-symbol":"lighthouse"}},{"type":"Feature","geometry":{"type":"Point","coordinates":[-3.184803,55.943173]},"properties":{"location":"brings.remedy.latter","rgb-string":"#ffc000","marker-color":"#ffc000","marker-symbol":"danger"}},{"type":"Feature","geometry":{"type":"Point","coordinates":[-3.190727,55.943092]},"properties":{"location":"relate.chill.vest","rgb-string":"#40ff00","marker-color":"#40ff00","marker-symbol":"lighthouse"}},{"type":"Feature","geometry":{"type":"Point","coordinates":[-3.185525,55.943982]},"properties":{"location":"manliness.poem.cliff","rgb-string":"#ffc000","marker-color":"#ffc000","marker-symbol":"danger"}},{"type":"Feature","geometry":{"type":"Point","coordinates":[-3.18514,55.943685]},"properties":{"location":"hello.love.keys","rgb-string":"#ffc000","marker-color":"#ffc000","marker-symbol":"danger"}},{"type":"Feature","geometry":{"type":"Point","coordinates":[-3.186392,55.944656]},"properties":{"location":"rated.fired.crowds","rgb-string":"#ffc000","marker-color":"#ffc000","marker-symbol":"danger"}},{"type":"Feature","geometry":{"type":"Point","coordinates":[-3.186922,55.945437]},"properties":{"location":"spent.spoon.bolt","rgb-string":"#ffc000","marker-color":"#ffc000","marker-symbol":"danger"}},{"type":"Feature","geometry":{"type":"Point","coordinates":[-3.189138,55.944197]},"properties":{"location":"spoon.invest.every","rgb-string":"#40ff00","marker-color":"#40ff00","marker-symbol":"lighthouse"}},{"type":"Feature","geometry":{"type":"Point","coordinates":[-3.187693,55.942769]},"properties":{"location":"panic.squad.danger","rgb-string":"#ff8000","marker-color":"#ff8000","marker-symbol":"danger"}},{"type":"Feature","geometry":{"type":"Point","coordinates":[-3.185621,55.943065]},"properties":{"location":"toned.deflection.bland","rgb-string":"#ff4000","marker-color":"#ff4000","marker-symbol":"danger"}},{"type":"Feature","geometry":{"type":"Point","coordinates":[-3.185236,55.944575]},"properties":{"location":"acid.chair.butter","rgb-string":"#ffc000","marker-color":"#ffc000","marker-symbol":"danger"}},{"type":"Feature","geometry":{"type":"Point","coordinates":[-3.190294,55.943712]},"properties":{"location":"sculpture.shot.melon","rgb-string":"#40ff00","marker-color":"#40ff00","marker-symbol":"lighthouse"}}]}